name,eic_code,lat,lon
1er Palier Isérables c. Arcay,,46.1609354297,7.24886403999
Aarau Stadt,,47.3947817334,8.03587458337
Aarberg,,47.0378523989,7.27192721071
Aarburg,,47.3191178376,7.90315413711
AAREwerk 62 Thun,,46.7616886927,7.61338717639
AAREwerk 94 Thun,,46.7616779127,7.62032482826
Aboyeu,,46.1819570581,7.03393846048
Ackersand 1,,46.239778934,7.87489823485
Ackersand 2,,46.240231203,7.87425362084
Aegina,,46.4681741373,8.36952330442
Albbruck-Dogern,,47.58581763,8.13293948536
Albbruck-Dogern,,47.5977213923,8.17165593034
Albignawerk Löbbia,,46.3749522123,9.65890088302
Albignawerk Löbbia,,46.3749522123,9.65890088302
Albignawerk Löbbia,,46.3690603354,9.67478057273
Aletsch,,46.3539748841,8.04276023491
Am Löntsch,,47.0566384819,9.04911463355
Am. de dotation d'Hauterive 2,,46.7179036853,7.1124380045
Am. de dotation du Châtelot,,47.1014437602,6.74440337669
Am. de dotation du Kembs 1,,47.6194755433,7.57030818507
Am.de dotation d'Hauterive 1,,46.7179036853,7.1124380045
Am.de dotation d'Oelberg,,46.7987340488,7.16591494327
Amsteg,,46.7667596543,8.67292336359
Amsteg,,46.7750725678,8.66957811216
Amsteg,,46.7151423238,8.61105066077
Arbaz I (Comba Energies),,46.2682177813,7.37884786057
Arbaz II (Sionne Energie),,46.2464389011,7.36318337545
Ardon,,46.2167209401,7.25657347569
Arniberg,,46.7689944794,8.66590412922
Arosa-Litzirüti,,46.8000493529,9.70591198066
Äsch,,46.8652358009,8.81028683203
Aue,,47.4703876782,8.31091055866
Aue-Dotierzentrale,,47.4685180209,8.30835960616
Augst,,47.5367624123,7.70968848078
Au-Schönenberg,,47.5239809806,9.18679102533
Bäch,,47.2003433021,8.72530004013
BAG Turgi,,47.4981499556,8.24049276547
Balavaud,,46.2209490674,7.2566888557
Baltschieder,,46.3075293023,7.87167668529
Bannalp,,46.8803037351,8.42125996207
Bannwald,,46.8868282361,8.64234852845
Bannwil,,47.2293726093,7.73229827172
Bärenburg,12W-0000000016-H,46.5901915365,9.42142722621
Bärenburg Dotieranlage,12W-0000000016-H,46.5901915365,9.42142722621
Bargaus,,46.7931455833,9.27364512391
Bassecourt,,47.331015929,7.23197724871
Bätterkinden,,47.1330038883,7.54407602098
Bavona,12W-0000000925-8,46.4103537646,8.53761284541
Bellerive,,47.3828021223,7.35916951758
Berner Green Power GmbH,,46.6669162637,7.46411851171
Beulet,,46.2682325663,7.42100406459
Bevieux,,46.2603811856,7.02881412738
Beznau,,47.557805126,8.23714123041
Beznau,,47.550050977,8.22679525193
Biasca,12W-0000000026-D,46.3349885216,8.98264959939
Biberist,,47.1835291625,7.56911004647
Birsfelden,,47.5598609367,7.62636460556
Bischofszell,,47.4930279409,9.23422119529
Bisisthal,,46.9466216843,8.82799774611
Bitsch,12W-0000000105-J,46.3336461722,8.0075990397
Blanches-Fontaines Undervelier,,47.2948384497,7.22127698932
Blatten,,46.4229430636,7.82212420241
Blatten (SAK),,47.307700421,9.56728348718
Blinne,,46.4652885047,8.25334304008
Blumenstein,,46.727704518,7.51333335379
Bocki 1,,46.8409637891,8.63214556041
Bocki 2,,46.8409637891,8.63214556041
Bondo,,46.3339963909,9.55121328995
Bortel-Mittelstufe,,46.297742733,8.06082520919
Bortel-Oberstufe,,46.2934511663,8.08815887117
Boudry (les Essert),,46.9508768262,6.84290644242
Bözingen,,47.1545087131,7.26655078925
Bremgarten-Zufikon,,47.3436544275,8.34562802508
Brigels-Tavanasa,,46.7580621697,9.07174622905
Broc,,46.6098576224,7.10930675272
Brügg,,47.1191458966,7.2580998136
Bruggmühle,,47.3497309812,8.33924607379
"Brummbach, Braunwald",,46.9386081948,8.98305061474
"Brummbach, Linthal",,46.9276405378,9.00230354147
Buchs-Altendorf,,47.1569967916,9.46710077053
Buchs-Tobeläckerli,,47.1562316902,9.46456548914
Buchs-Vorderberg,,47.1490022349,9.44582705102
Buoholzbach Wolfenschiessen,,46.9270904029,8.3991353836
Burentobel,,47.4191628646,9.34135118586
Burglauenen-Lütschental,,46.6373283443,7.95450426806
Bürglen (Loreto),,46.8765292426,8.6633716678
Bürglen (Säge),,47.547257475,9.15221424841
Bürglen (Unterschächen),,46.8765292426,8.6633716678
Büttenen 1,,47.4428086273,7.59347246718
Büttenen 2,,47.4428086273,7.59347246718
Calancasca,,46.2392079506,9.11854962054
Calcaccia,,46.5194921171,8.6345754932
Campo Vallemaggia,,46.2853101718,8.5086146267
Campocologno 1,,46.2321878892,10.1436946334
Campocologno 2,,46.2308021117,10.1451821456
Cassarate - Franscinone,,46.047992628,8.97466556023
Castasegna,,46.3360981055,9.51543700775
Cavaglia,,46.3680968766,10.0363058541
Cavergno,12W-0000000925-8,46.3536410924,8.59532353346
Centrale de turb. lac d'Icogne,,46.3059257158,7.43851437386
Cerentino,,46.3065771304,8.5516126454
Ceresa 1,,46.4856544595,8.78804420318
Chable II,,46.3078615869,6.89669954474
Chamarin,,46.3148311156,7.43176341997
Champagna 1,,46.5419232912,9.89347601258
Champéry Etrivouez,,46.161762733,6.85918766723
Champsec,12W-0000000034-F,46.0571253575,7.24806388388
Chancy-Pougny,,46.1604259494,5.9764989749
Chancy-Pougny Dot. passe pois.,,46.1593164285,5.97419822603
Chanrion,12W-0000000034-F,45.99977203,7.35062083304
Charmey (La Perré),,46.6145855566,7.16175653751
Charmey (La Tzintre),,46.6118329212,7.17691300027
Chasseras,,46.614013798,10.4414426528
Chasura,,46.8702702474,10.4358013527
Châtelard-Barberine,,46.0620181656,6.95858815009
Chippis-Rhône,,46.2819458712,7.54749996634
Choindez,,47.3222821543,7.37844081384
Chriz,,46.3017818766,7.79089962744
Clemgia,,46.7884940361,10.296917759
Cleuson-Dixence,,46.1829790765,7.25150652126
Combe-Garot,,46.9623191064,6.79639758751
Corgello-Peccia,12W-0000000925-8,46.4156418664,8.61147407012
Croix,,46.3081744934,7.43410089912
"Croseau, Saint-Gingolph",,46.3877224781,6.80580981556
Dala,,46.3187294651,7.62378458261
Dallenwil,,46.9116636808,8.39360887478
Dardin (Casut),,46.7573816308,9.04999337816
Diablerets,,46.3530641075,7.15465044855
Diesbach (Linth),,46.9511277567,9.02808233474
Dietfurt,,47.3444435336,9.08070597557
Dietikon,,47.4103399639,8.40798019435
Dornachbrugg,,47.4890184953,7.60740615434
"Dünnern, Olten",,47.3486379073,7.89864659258
Eglisau,,47.5749161402,8.47332208664
Eichi,,46.9407431769,8.28786773153
"Elggiskraft, Netstal",,47.063765377,9.0605203259
Emmenhof,,47.1948463818,7.582729415
Emmenweid,,47.0670379793,8.26366866258
Emosson,12W-0000000060-F,46.0508221655,6.94899701138
Emosson,12W-0000000060-F,46.1098184883,7.06176506313
Emosson,12W-0000000060-F,46.085765669,6.91791404295
Emosson,12W-0000000060-F,46.0508221655,6.94899701138
Empächli,,46.9223429911,9.15841990058
Engeweiher,,47.6934840779,8.63043555306
Engi,,46.9850426515,9.15319754055
"Engi, Hinterdorf (Sernf)",,46.9744263563,9.159168101
Engstlige,,46.5068875836,7.58273413036
Engstligenalp,,46.4491601982,7.56175847554
Erlenbach,,46.6568821564,7.54811891222
Erlenholz,,47.4572264157,9.36804900144
Ernen,,46.3911687446,8.13015040964
Etzelwerk,,47.1941128968,8.81291517067
EW Zürchersmühle,,47.3318002224,9.29178339624
Fafleralp,,46.4296977536,7.84571987097
Fätschbach,12W-0000000018-B,46.915510447,8.98790156154
Felsenau,,46.9684429408,7.43942106448
Felsenau,,46.9658342354,7.44467696468
Ferrera,12W-0000000016-H,46.7435050176,8.98649363197
Ferrera 1,12W-0000000016-H,46.5329177645,9.43419338513
Ferrera 2,12W-0000000016-H,46.5329177645,9.43419338513
Feusisberg,,47.173583302,8.71291509258
Fiesch,,46.39645212,8.13411837029
Fieschertal,,46.4260956687,8.14113296389
Filisur,,46.6698919694,9.68920263555
Filisur-Tiefencastel,,46.6608466013,9.57955507518
Fionnay (Mauvoisin),12W-0000000034-F,46.0304047252,7.30795254991
"Flims, Felsbach (Bergwasser)",,46.8340905068,9.31765249379
"Flims, Felsbach (Karstwasser)",,46.8340905068,9.31765249379
Flumenthal,,47.2291069149,7.58995168618
Flums (Felsen),,47.0880841876,9.34026178488
Flums (Neues Sägengüetli),,47.0886280848,9.34001761784
Flums (Pravizin 1 (Bruggwiti)),,47.0865591822,9.33454317319
Flums (Pravizin 2 (Äuli)),,47.0862894131,9.33453362605
Fornowerk Löbbia,,46.3749522123,9.65890088302
Frauenkirch,,46.7688686224,9.80558112281
Freienstein,,47.528692361,8.58703091713
Frinvillier,,47.1683406671,7.25371218143
Fully,,46.1668831687,7.1002106836
Gabi,,46.1882115335,8.0700669845
Ganterbach-Saltina,,46.3044267487,8.00417833469
Gental,12W-0000000031-O,46.7271910884,8.33369724917
Gental,12W-0000000031-O,46.7271910884,8.33369724917
Gérignoz - La Pontia,,46.4732724541,7.165215604
Gerlafingen 1,,47.1558500995,7.54477997909
Giessbach,,46.7344427309,8.01888764388
Giessen,,47.2178452198,9.20939259186
Ginals,,46.2659175633,7.78158838307
Giumaglio,,46.2824127218,8.66971883413
Glaris,,46.7360930283,9.77586865383
Glattalp,,46.9176188126,8.84549886362
Gondo,,46.196009215,8.1506042231
Göschenen (Andermatt),,46.6673628552,8.5853141019
Göschenen (Göscheneralp),,46.6673628552,8.5853141019
Göschenen (Unterdorf),,46.6678191535,8.58467035968
Gösgen,,47.3694251427,7.97945465498
Grabs (Bannwald),,47.17262767,9.41689346785
Grabs (Löchli),,47.1757270944,9.43020364886
Grande Dixence,12W-0000000902-P,46.1829790765,7.25150652126
Grande Dixence,12W-0000000902-P,46.0357066662,7.30341919624
Grande Dixence,12W-0000000902-P,46.0047716534,7.67810397785
Grande Dixence,12W-0000000902-P,46.0062309114,7.70909195632
Grande Dixence,12W-0000000902-P,46.0592145454,7.54848086406
Grande Dixence,12W-0000000902-P,46.013561516,7.48383646934
Grimsel 1-Grimselsee,12W-0000000031-O,46.5753380766,8.33353407357
Grimsel 1-Oberaarsee,12W-0000000031-O,46.5753380766,8.33353407357
Grimsel 2,12W-0000000031-O,46.5680720667,8.31932651704
Grindelwald,,46.6264198282,8.05024233615
Grono,,46.2420119954,9.15352000435
Grossbach,,47.0258051067,9.44161096561
Gsteig,,46.3852280895,7.26861425605
Guarda (Ara),,46.7684823294,10.1429807693
Hagendorn,,47.2016699737,8.43759101386
Hagerhüsli,,47.1209582677,7.53548691316
Hagneck 2,,47.0596245726,7.17800844643
Handeck 1,12W-0000000031-O,46.6168313032,8.30758712831
Handeck 3 - Diagonalpumpe,12W-0000000031-O,46.6156957263,8.30313005616
Handeck 3 - Isogyre,12W-0000000031-O,46.6156957263,8.30313005616
Hard Wülflingen,,47.5179055877,8.67376758421
Haslen,,46.9838748007,9.06034155135
Hauterive,,46.7689506687,7.1275763544
Hefti,,46.9646347789,9.04017863032
Heiligkreuz,,46.347614362,8.17519358557
Herrentöbeli,,47.2447757187,9.17791678684
Höngg,,47.4014693207,8.48651399019
Hopflauenen-Leimboden,12W-0000000031-O,46.715113414,8.27751698219
Hopflauenen-Trift,12W-0000000031-O,46.715113414,8.27751698219
Hospental,,46.6205638209,8.56904462908
Hospitalet,,45.8860019638,7.18722185045
Hüribach,,46.9710051496,8.78249669152
Ibach,,47.0071473786,8.64715120305
Igiser Mülbach 1 (Landquart 1),,46.9593278102,9.57988985784
Igiser Mülbach 2 (Landquart 2),,46.9548019948,9.5668303331
Ilanz 1 (Stufe Tavanasa),,46.7747637594,9.1952255793
Ilanz 2 (Stufe Panix (Pigniu)),,46.7747637594,9.1952255793
Illsee,,46.2832519814,7.68879773306
Illsee,,46.2608306213,7.65588229667
Im Roos,,47.2585402791,9.12960201415
Ingenbohl,,47.0046337809,8.6119820992
Innere Spinnerei,,47.1403291209,8.57250348397
Innertkirchen 2,12W-0000000031-O,46.7085534816,8.22601948865
Interlaken,,46.6826409841,7.85010729942
Interlaken,,46.6820230364,7.84683489879
Isenthal (Bolzbach),,46.8992075573,8.59340713177
Islas,,46.5056195848,9.85728901713
Jaun,,46.6085004996,7.26934360331
Jenins,,46.9931780282,9.55480652195
Juramill,,47.4105191351,7.49467015206
Kallnach,,47.0214990152,7.22817749023
Kalter Brunnen,,46.3124055348,7.81615308604
Kandergrund,12W-0000000031-O,46.5427473984,7.65948659951
Kandersteg (Dorf),,46.4959386063,7.67518789714
Kandersteg (Eggeschwand),,46.4750989753,7.66012339529
Kandersteg (Zilfuri),,46.4956334904,7.69159893354
Kappelerhof,,47.4845539139,8.29283192528
Kembs,,47.6549559529,7.51941590623
Kleintal (Isenthal),,46.9100429809,8.56226516908
Klingnau,,47.5945791001,8.22572773348
Klosters,,46.861014512,9.89557404649
Klusi,,46.6638985262,7.54826368379
Kollbrunn,,47.4592833018,8.76883185531
Kraftwerk Walibach,,46.4521519549,8.21513948705
Krauchbachwerk,,46.9561528371,9.15976534811
Kubel,,47.4019094764,9.32364063827
Küblis,,46.913974185,9.78202924909
KW Jungbach,,46.1875857555,7.80376246261
KW Sagenbach,,46.8284428074,9.60614992526
"KW Siwibach (Eisten, VS)",,46.1797220622,7.91106743398
KW Ulrichen,,46.5031259385,8.31853164755
KWKW Bachtoli,,46.2926424983,7.77903138525
KWKW Dornbach,,46.3912093026,7.75702702489
La Dernier,,46.7020995589,6.34993754477
La Dixence,,46.1127290441,7.3218520553
"La Douve, Aigle",,46.3277994563,7.01531866907
La Goule,,47.2287001901,6.92853835569
La Jougnenaz,,46.7232276398,6.39660508601
La Petite Vaux,,46.4888599452,6.40502679993
La Peuffeyre,,46.2659833584,7.06171756484
La Rançonnière,,47.0529629931,6.71594514968
La Rasse,,46.1813257215,7.0092074642
La Zour,,46.2744977933,7.35289555834
Ladral,,46.771415734,9.11876991407
Lauenen (Louibach),,46.4241533318,7.31831395313
Laufen (Wasserfall),,47.4196898837,7.50117302601
Laufenburg,,47.5558907696,8.04884507333
Lavey,,46.2144442208,7.01296270519
Le Chalet,,46.7277263163,6.52224302381
Le Châtelot,,47.1209584467,6.77393285741
Le Furcil,,46.9536626014,6.73186608774
Les Clées,,46.7311268769,6.44499252092
Les Moyats,,46.9529131011,6.75657368575
"Les Pontets, Com. de Riddes",,46.1295458122,7.25182026579
Lessoc,,46.5060508043,7.05326712822
Letten,,47.3870125904,8.53232193345
Leuggelbach,,46.9774012894,9.04726356888
Lienz,,47.2751747537,9.525398933
Linthal,12W-0000000018-B,46.915510447,8.98790156154
Linthkraft (Stiftung),,46.9200748442,8.99630573219
"Linthkraft, Netstal",,47.0737495147,9.06069079857
Linthwerk,,46.9260539645,8.99989350898
Lizun,,46.3806401186,9.65796327585
Lochmühle,,47.4603255412,9.43979811879
Lona,,46.1551994564,7.54582501443
Lorzentobel 1,,47.1803537205,8.55474850407
Lorzentobel 2,,47.1720203925,8.56064287994
Lorzentobel 3,,47.1957044664,8.53936374921
Lostallo,,46.3219576602,9.20903078792
Lötschen,,46.3197285465,7.74427490433
Lucendro,,46.5263515901,8.59770900919
Lucendro,,46.5523390702,8.57218411816
Luchsingen,,46.9660497748,9.0354895251
Lunschania,,46.6601503473,9.18823038522
Luterbach,,47.2141946615,7.57472874781
Luzzone,12W-0000000026-D,46.565256077,8.96078316021
Madulain,,46.5852709512,9.9363025202
Malters-Ettisbühl,,47.0382855313,8.16559322075
Manegg,,47.3387264858,8.52087782283
Mapragg,12W-0000000917-6,46.9484407976,9.4812988795
Martigny-Bourg,,46.0883098661,7.05906976663
Massaboden,,46.3329975315,8.01135847344
Matte,,46.9464934587,7.45675932783
Meiringen 1,,46.7287537496,8.19203780743
Meiringen 2,,46.7317817542,8.19665922545
Melchsee-Frutt,,46.799646307,8.28145261421
Mels (Halde),,47.0445449435,9.4142733533
Mels (KW Stoffel),,47.0432633834,9.41554241732
Mels (Tobel),,47.0382556599,9.3927198108
Merezenbach,,46.4857148879,8.27735361119
Mesocco (Nan Ros),,46.4196352889,9.23446723925
Micro-centrale de Fontanney,,46.3170626321,6.98398364412
Molinis-Lüen,,46.8284428074,9.60614992526
Montbovon,,46.4879524618,7.04831690495
Montcherand,,46.7272057233,6.51348662252
Monthey (Commune),,46.2496081279,6.94448084181
Monthey (Tine),,46.2492602077,6.94720705322
Monthey (Vièze),,46.2492602077,6.94720705322
Montlingen,,47.3392405944,9.57926456954
Moos,,47.4387770608,7.58113219065
Moosweid,,46.4961001155,7.57684401786
Mörel,,46.3521806524,8.04183088725
Morgental (Abwasser),,47.5005666197,9.42790432392
Morobbia,,46.1680636081,9.01689952707
Morteratsch,,46.4525803371,9.94164682347
Mossjesee Kraftwerk,,46.0100902184,7.77882470311
Mottec,,46.153036238,7.61998842797
Moulinets sur l'Orbe,,46.7209697782,6.53229949585
Moutier,,47.2656875543,7.34903942074
Mühleberg,,46.9691475017,7.28449397374
Mühlefuhr,,47.0265624558,9.08268411153
Mühlenplatz,,47.0517337725,8.30199665485
Mülau,,47.410872339,9.07811617053
Mulin,,46.833447951,9.34018135796
Muota,,46.9710051496,8.78249669152
Muranzina,,46.5965486956,10.4278045452
Murg (Gödis),,47.1084484412,9.21473631193
Murg (Merlen),,47.0729029373,9.19762330651
Murg (Plätz),,47.0924492274,9.20788224569
Murg (Säge),,47.113504883,9.21938501334
Murkart,,47.5374877465,8.91438251912
Muslen,,47.1380756597,9.13555309657
Mutt,,46.0114638208,7.73855316305
Muttsee,,46.8464330851,9.01279515584
Nandrò,,46.5681520979,9.5702754213
Navisence,,46.2813172873,7.54633103324
Nenzlingen,,47.4438497021,7.5478685338
Nesslau (Ijentalerbach),,47.2216373141,9.18495516077
Neubrigg,,46.3961814647,8.13424492723
Neuewelt,,47.5257818674,7.62173011689
Neuhausen,,47.6798806585,8.61494656661
Niederenbach,,46.9957286985,9.08713105463
Niedergesteln,,46.3142105265,7.78617657396
Niedergesteln,,46.3280600652,7.78743366168
Niederglatt-Gossau,,47.4314001196,9.17553013871
Niederlenz,,47.3991885281,8.17621146751
Niederried,,47.0031721765,7.24113567118
Niederurnen,,47.1235820231,9.04216502354
Niollet 1,,46.0219359255,7.12138441237
Niollet 2,,46.0211838851,7.14243628028
Nufenen,,46.5430537927,9.24795177052
Nuova Biaschina,12W-0000000064-3,46.3649512107,8.92878536777
Oberalp,,46.6329580099,8.60678648212
Oberems (Borterbach),,46.2480316908,7.70938258125
Obermatt,,46.8421091009,8.3737585174
Obermatt (Nebenkraftwerk),,46.8429378906,8.37141299362
Oberterzen,,47.1005471458,9.25966883654
"Obflue, Sachseln",,46.857050951,8.22950231798
Oelberg,,46.8017059504,7.1673408094
Olivone,12W-0000000026-D,46.5396795136,8.94911144856
Orsières,,46.0210935902,7.14230764616
Orsières,,45.9950854665,7.1738116591
Ossasco,,46.5126365625,8.53838477213
Ouvra Electrica Lavinuoz Lavin,,46.7689779531,10.1143178662
Ova Spin,12W-0000000035-C,46.6782585306,10.1444753501
Ova Spin-Dotieranlage,12W-0000000035-C,46.6782585306,10.1444753501
Pallazuit,,45.9810884929,7.18949243196
Palü,,46.3724950431,10.0289744735
Palü,,46.4075413892,10.019588316
Pas-du-Lein,,46.1141701715,7.16702258324
Pedecosta,,46.3576454254,10.0757152147
Perlen 1 (WTA HF),,47.1071639177,8.35769882857
Perlen 2 (WTA PF),,47.111127653,8.36817610462
Pfungen,,47.5214894015,8.64091948594
Pilgersteg,,47.2688671863,8.87219842017
Pintrun,,46.8148577632,9.34883064445
Piottino,,46.4383309577,8.83996336006
"Piumogna, Dalpe",,46.4665637849,8.76660589676
Plancanin,,46.3638966463,9.71265622238
Plan-de-l'Eau,,46.9531054291,6.74369685922
Plan-Dessous,,46.4992089696,6.3858086765
Plessurwerk,,46.8404306281,9.54250541843
Plons,,47.0540573941,9.40001024029
Pont de la Tine,,46.348145567,7.04451800887
Pont de la Tine  Coussy-Loudze,,46.3474245655,7.04413354848
Ponte Brolla,,46.18559009,8.75120889324
Pont-Neuf,,46.073184867,7.05542701654
Pradella,12W-0000000035-C,46.8045802532,10.3336910022
Pradella - Dotierzentrale,12W-0000000035-C,46.8050592146,10.3289973638
Pradella-Martina,12W-0000000035-C,46.8821155388,10.4645577137
Preda-Bergün,,46.5874577736,9.77845017026
Punt dal Gall-Dotieranlage,,46.6234441915,10.1932036115
Punt Gronda (Platt Alva),,46.8384516549,9.26509335259
Punt Gronda (Segnas),,46.8384516549,9.26509335259
Punt Gronda (Tarschlims),,46.8384516549,9.26509335259
Rabiusa-Realta,12W-0000000011-W,46.7649113824,9.41790308497
Rabiusawerk,,46.8404306281,9.54250541843
Ragaz,,47.0000948296,9.50115288825
Rappental,,46.3945542547,8.17817050918
Rathausen,,47.0817753951,8.3143325152
Realp,,46.5993455879,8.50229746755
Reckingen,,47.5710071549,8.3380806201
Refrain,,47.1876938239,6.87311737175
Reichenau,,46.8377337086,9.44733101447
"Reserv. de Péteille, Vétroz",,46.2269117894,7.27325930917
Rheinau,,47.6389102371,8.60166117811
Rheinfelden,12W-0000000080-7,47.5688531592,7.8129757269
Rheinfelden-Dotierzentrale,12W-0000000080-7,47.5688531592,7.8129757269
Rheinkraftwerk Säckingen,,47.5578674161,7.95679136018
Ri di Foch 2 Prato (Leventina),12W-0000000064-3,46.480190595,8.74753439559
Riddes,12W-0000000034-F,46.1574432142,7.20926514067
Riddes (l'eau potable),,46.1689050258,7.2283790358
Riedji,,46.2393596552,7.89006330756
Risi,,47.0946783225,9.05671355608
Ritom,12W-0000000064-3,46.5172567651,8.67531756408
Rivaz (Le Forestay),,46.4746425288,6.77770904753
Robbia,,46.3482642227,10.0610921706
Robiei,12W-0000000925-8,46.4449947898,8.50890150082
Rochers,,46.2633429435,7.35252424065
"Röllbach, Flums",,47.0823099655,9.3520435321
Rondchâtel,,47.1710326223,7.24974576351
"Roseg, Samedan",,46.5117431884,9.87815914687
Rossfall,,47.2868596876,9.27779379793
Rosswald-Gärsterna,,46.3162383255,8.03403209364
Rothenbrunnen,12W-0000000011-W,46.7658960254,9.41820114963
Rothenbrunnen (EWZ),12W-0000000011-W,46.7739461705,9.42098533692
Rotzloch,,46.9648831886,8.33108666537
Rüchlig - HKW,,47.3997456678,8.0498397695
Rüchlig-Dotierzentrale,,47.3991034678,8.05221688004
Ruosalp,,46.9176188126,8.84549886362
Rupperswil-Auenstein,,47.411796663,8.1147717897
Rupperswil-Auenstein,,47.4105406247,8.11422585456
Ruppoldingen,,47.3122915561,7.87770217417
Russein,,46.7202818447,8.89856834691
Rütiberg (Brändbach),,47.0936004244,9.0373154401
Rütiberg (Obersee),,47.0936004244,9.0373154401
Ryburg-Schwörstadt,,47.5863232345,7.83343789289
Ryburg-Schwörstadt Lockstromz.,,47.5874006466,7.83397764783
Saas-Fee,12W-0000000033-I,46.1162811438,7.93690667216
Safien Platz,12W-0000000011-W,46.6778242878,9.31587383275
Saflisch,,46.342857005,8.17357038389
Sainte - Anne,,46.5351297566,7.08799404019
Salanfe,,46.1464058483,7.02889676253
Salanfe,,46.1396566091,6.88168142131
Salanfe,,46.1350007179,6.88612860078
Sambuco-Peccia,12W-0000000925-8,46.4156418664,8.61147407012
Sanetsch,,46.3764261319,7.27799985349
Sarelli,12W-0000000917-6,46.9770980292,9.53865885488
Sauterôt (Hérémence FMdB),,46.1707174053,7.40783042964
Sauterot (Hérémence LYSA),,46.1699973881,7.40653607429
Saxettal-Geissbrunnen,,46.6283781404,7.82997757095
Saxettal-Kammri,,46.65762105,7.853444546
Schächental,,46.8632677495,8.76354152909
Schaffhausen,,47.6931243898,8.63042746026
Schattenhalb 3,,46.7194470022,8.18458296836
Schergenbach,,46.960384617,10.4217681589
Schiffenen,,46.8827252047,7.19421903622
Schiffmühle,,47.4887141635,8.26489952614
Schiffmühle - Dotierzentrale,,47.4874209022,8.2696564317
Schild,,46.7798141191,8.15569252116
Schlappin,,46.8850480052,9.87855790113
"Schlossmühle, Frauenfeld",,47.5538872916,8.89796299427
Schwanden (F.Blumer),,46.9937940839,9.07773551203
Schwanden (Gemeinde),,46.9956406573,9.08699685101
Schwanden (SNE),,46.994725001,9.08184034492
Sedrun 1,12W-0000000021-S,46.670049651,8.76860353742
Sedrun 2,12W-0000000021-S,46.670049651,8.76860353742
Seealp - Wasserauen,,47.2807040389,9.42116368952
Seedorf (Trinkw. Chuchibachq.),,46.8992075573,8.59340713177
Seekraftwerk Zervreila,12W-0000000011-W,46.5789495911,9.1193155643
Sella,,46.5524637488,8.58666190321
Sembrancher,,46.079152002,7.15672724814
Sennhof,,47.4661750376,8.75613687859
Sennwald,,47.2615761557,9.49605409189
Sernf,,46.9957286985,9.08713105463
Serrières centrale 1,,46.9823937374,6.90420191833
Serrières centrale 2,,46.9817665493,6.90473393392
Serrières centrale 3,,46.9841816382,6.9018180623
Seujet,,46.2031197477,6.13447158551
Sevelen,,47.1209036183,9.48300188061
Sigirino (Monteceneri),,46.0774335119,8.91253368696
Sihl-Höfe,,47.1773356908,8.68239576491
Sils,12W-0000000016-H,46.7031360141,9.46664904976
Sils (EWZ),12W-0000000016-H,46.7040817391,9.46406852744
Silvaplana,,46.4596242856,9.79337673204
Simmenfluh,,46.6727987868,7.62264084059
Sittertal,,47.410010524,9.32339732284
Soazza,,46.3424239041,9.21216635065
Solis,,46.6819220936,9.52521300017
Sonzier,,46.4403231332,6.92517165399
Soor,,47.3564409783,9.07842778781
Sous les Roches,,47.1896143522,7.18396966384
Spiez,,46.6966510403,7.6649514724
Spina (Isola),,46.431134362,9.20699910427
Spina (Valbella),,46.431134362,9.20699910427
Splügen (Tambobach),,46.5459228175,9.30973326414
"Spreitenbach, Galgenen Kistler",,47.1809763388,8.85757157445
St.Sulpice,,46.9106213602,6.55745141266
"Stadtbrücke, Lichtensteig",,47.3232416909,9.08494859192
Stalden,12W-0000000033-I,46.2302203342,7.85719305844
Stalvedro (AET),12W-0000000064-3,46.5174111108,8.67766693812
Stalvedro (Julia),12W-0000000064-3,46.4796105068,9.6452128901
Stäubenwald,,46.7281811232,8.62036146626
Stechelberg,,46.544726438,7.89990747896
Stenna (Flims) Flembach,,46.8337568535,9.28289622392
STEP Vallée Bagnes,,46.0827671918,7.20311685212
St-Léonard,,46.260587705,7.44474052981
Stollen,,47.0337616233,8.23723761716
"Stroppel, Untersiggenthal",,47.5027384384,8.24029647654
Sublin 1,,46.2650997419,7.04019258223
Sublin 2,,46.2650997419,7.04019258223
Susasca,,46.7551930076,10.0840366722
Sustli,,46.963776447,8.48336356408
Tagenstal,,46.8056049248,8.44557705375
Talbach,,47.1105410978,9.27055175592
Tannuwald,,46.1499409889,8.10793668693
Tarasp (Ischla),,46.7899029834,10.2837559953
Täschbach,,46.0672050805,7.78111832736
Taschinas,,46.9828412314,9.64486330331
Tasnan,,46.7776529012,10.2257209387
Taubenloch,,47.1607076521,7.26165130183
Taulan,,46.4339054895,6.91846679903
Tavanasa (KVR),12W-0000000021-S,46.7510368203,9.04692392804
Tecnicama,,46.2851556545,9.17421837591
Thorenberg,,47.0525764602,8.24804704827
Thun (Eidg.),,46.761596737,7.61469587515
Thur,,47.5502758294,9.1427446335
Thurfeld,,47.5192647047,9.20708697249
Thusis,,46.6901486217,9.44288408447
Ticinetto,,46.4195742834,8.85066701859
Tiefencastel Ost,,46.6644016578,9.56270347437
Tiefencastel West,,46.6644016578,9.56270347437
Tierfehd (Hintersand),12W-0000000018-B,46.8761153436,8.98702934899
Tierfehd (Limmern),12W-0000000018-B,46.8761153436,8.98702934899
Tierfehd (Umwälzwerk),12W-0000000018-B,46.8787500802,8.98513704227
Tinizong,,46.5825064851,9.61064835764
Töbeli,,47.1248957041,9.32865044802
Törbel (Gappil),,46.2347493762,7.84867201981
Torrent de Soi,,46.1860308699,6.89104970296
Tremorgio,12W-0000000064-3,46.4902114363,8.73670424626
Trempel,,47.2494883643,9.16366835457
Trient,,46.0583372445,6.96030038614
Trübsee,,46.8165004459,8.3919220311
Trümpler,,47.3456402562,8.73992340849
Trun,,46.7435050176,8.98649363197
Turbinage Jora - Afforêts,,46.1911570385,7.1997964841
Turbinage Salvan et Vernayaz,,46.1338328331,7.0346848085
Turgi,,47.4960768989,8.25399849275
Turtig,,46.3012328337,7.79388128295
Turtmann,,46.2954022598,7.68599836405
TWKW Nessel u. Mittubäch,,46.2892989196,8.02478361542
Unteraa - Lungerersee,,46.8214351941,8.1744623486
Unteraa - Melchaa,,46.8214351941,8.1744623486
Unterbäch,,46.2857490893,7.79741347619
Untere Emmengasse,,47.2045650167,7.57919186742
Untermühle,,47.1964928952,8.44330123323
Usine du Chanet,,46.9592586149,6.82888645291
Utzenstorf,,47.1458646634,7.54607873841
"Uznaberg, Uznach",,47.2311598929,8.96429863072
Val Giuf,,46.6713364433,8.75072947495
Valeis,,47.0232622307,9.44809505335
Valmara,,45.9394453937,8.9776796767
Verbano 1,12W-0000000925-8,46.131824283,8.71678735348
Verbano 2,12W-0000000925-8,46.1321767287,8.71744263841
Verbois,,46.1913941292,6.02735734063
Vernayaz (CFF),,46.1332077915,7.03598337007
Verzasca (Gordola),,46.1942167756,8.84910111686
Verzasca (Tenero),,46.1816582328,8.85330945367
Vessy,,46.1790567398,6.17027683448
Vissoie,,46.2099376546,7.58596983367
"Vissoie ""groupe auxiliaire""",,46.2099376546,7.58596983367
Vollèges-Cries,,46.0935060212,7.17785746662
Vouvry,,46.3361244664,6.88148115355
Wägital (Rempen),12W-0000000013-Q,47.1383731791,8.89757736059
Wägital (Siebnen),12W-0000000013-Q,47.1716280522,8.90006739911
Waldhalde,,47.1791652701,8.62847586729
Walzmühle 2,,47.0493657979,9.067192771
Wannenfluh,,46.9973291774,7.7219601987
Wassen,,46.7156913962,8.61014697239
Wässerwasserkraftwerk Mund,,46.3142389389,7.94572953313
Wässerwasserkraftwerk Mund,,46.3047309042,7.93954029783
Weinfelden (Model),,47.5608510601,9.1021506291
Weinfelden (Mühle),,47.5607188536,9.09882399502
Wernisberg,,46.9962188228,8.65124425665
Wettingen,,47.457089915,8.3209043409
Wettingen-Dotieranlage,,47.4563663935,8.32142281949
Widen,,47.5647136507,9.07728471582
Wiesti,,46.0243792554,7.75257026538
Wildegg-Brugg,,47.4688460177,8.1698811311
Wildegg-Brugg,,47.4514400712,8.16301195767
Wiler,,46.4069461254,7.78950019889
Windisch,,47.4813098091,8.23042079077
Wisserlen,,46.9102736664,8.29644423422
"WKW Neuägeri, Gmde Menzingen",,47.1528364463,8.56301002572
Wolfenschiessen,,46.9012025691,8.39670437623
Wolhusen (Geistlich),,47.0550001861,8.07763365713
Wunderklingen,,47.6978059267,8.4073779118
Wyhlen,,47.5387456625,7.70770633233
Wynau I,,47.2556656529,7.78674041559
Wynau II,,47.2568389099,7.78542689694
Zermeiggern,12W-0000000033-I,46.0823690569,7.95650543167
Zermeiggern,12W-0000000033-I,46.0841639647,7.95742737729
Ziegelbrücke,,47.1331874754,9.06288735926
"Zwingen, Obermatt",,47.4364944597,7.52399277792
